[
  {
    "title": "Food Drive at Sofi Stadium",
    "postedBy": "Big Joe",
    "description": "ID is required, limit 1 per person. There are non-veg, veg, and vegan food options. All come with water.",
    "address": "1001 Stadium Dr, Inglewood, CA 90301",
    "location": "South Hills",
    "hours": "May 5, 10-12PM",
    "contact": "444-222-9999",
    "type": "Food",
    "status": "Official",
    "timePosted": "10 mins ago"
  },
  {
    "title": "Water Distribution at City Hall",
    "postedBy": "John Doe",
    "description": "Clean bottled water available for all affected residents. Bring containers for additional water. Each household can receive up to 5 gallons. ID not required.",
    "address": "2375 Ridge Road, North County",
    "location": "North County",
    "hours": "8:00 AM - 8:00 PM daily through April 30",
    "contact": "555-234-5678",
    "type": "Water",
    "status": "Official",
    "timePosted": "1 hour ago"
  },
  {
    "title": "Shelter at The Midnight Mission",
    "postedBy": "Laremy John John",
    "description": "Come get 48 hour shelter. No smoking. First come first serve.",
    "address": "601 San Pedro St, Los Angeles, CA 90014",
    "location": "East Side",
    "hours": "8:00 AM - 1:00 PM daily through June 2",
    "contact": "650-232-1671",
    "type": "Shelter",
    "status": "Official",
    "timePosted": "1 day ago"
  },
  {
    "title": "Power Storage Sale",
    "postedBy": "Colonel Sanders",
    "description": "All power storage machines up to 1000kwh are 50% off at the Home Depot. Supply is limited.",
    "address": "1675 Wilshire Blvd, Los Angeles, CA 90017",
    "location": "East Side",
    "hours": "Store hours: 8AM - 8PM",
    "contact": "401-919-1920",
    "type": "Supplies",
    "status": "Verified",
    "timePosted": "5 days ago"
  }
]